
{  "AL": {
    "state_flag_url": "https://cdn.civil.services/us-states/flags/alabama-large.png",
    "name": "Alabama",
    "capital": "Montgomery",
    "lat": "32.361538",
    "long": "-86.279118"
  },
  "AK": {
    "state_flag_url": "https://cdn.civil.services/us-states/flags/alaska-large.png",
    "name": "Alaska",
    "capital": "Juneau",
    "lat": "58.301935",
    "long": "-134.419740"
  },
  "AZ": {
    "state_flag_url": "https://cdn.civil.services/us-states/flags/arizona-large.png",
    "name": "Arizona",
    "capital": "Phoenix",
    "lat": "33.448457",
    "long": "-112.073844"
  },
  "AR": {
    "state_flag_url": "https://cdn.civil.services/us-states/flags/arkansas-large.png",
    "name": "Arkansas",
    "capital": "Little Rock",
    "lat": "34.736009",
    "long": "-92.331122"
  },
  "CA": {
    "state_flag_url": "https://cdn.civil.services/us-states/flags/california-large.png",
    "name": "California",
    "capital": "Sacramento",
    "lat": "38.555605",
    "long": "-121.468926"
  },
  "CO": {
    "state_flag_url": "https://cdn.civil.services/us-states/flags/colorado-large.png",
    "name": "Colorado",
    "capital": "Denver",
    "lat": "39.7391667",
    "long": "-104.984167"
  },
  "CT": {
    "state_flag_url": "https://cdn.civil.services/us-states/flags/connecticut-large.png",
    "name": "Connecticut",
    "capital": "Hartford",
    "lat": "41.767",
    "long": "-72.677"
  },
  "DE": {
    "state_flag_url": "https://cdn.civil.services/us-states/flags/delaware-large.png",
    "name": "Delaware",
    "capital": "Dover",
    "lat": "39.161921",
    "long": "-75.526755"
  },
  "FL": {
    "state_flag_url": "https://cdn.civil.services/us-states/flags/florida-large.png",
    "name": "Florida",
    "capital": "Tallahassee",
    "lat": "30.4518",
    "long": "-84.27277"
  },
  "GA": {
    "state_flag_url": "https://cdn.civil.services/us-states/flags/georgia-large.png",
    "name": "Georgia",
    "capital": "Atlanta",
    "lat": "33.76",
    "long": "-84.39"
  },
  "HI": {
    "state_flag_url": "https://cdn.civil.services/us-states/flags/hawaii-large.png",
    "name": "Hawaii",
    "capital": "Honolulu",
    "lat": "21.30895",
    "long": "-157.826182"
  },
  "ID": {
    "state_flag_url": "https://cdn.civil.services/us-states/flags/idaho-large.png",
    "name": "Idaho",
    "capital": "Boise",
    "lat": "43.613739",
    "long": "-116.237651"
  },
  "IL": {
    "state_flag_url": "https://cdn.civil.services/us-states/flags/illinois-large.png",
    "name": "Illinois",
    "capital": "Springfield",
    "lat": "39.783250",
    "long": "-89.650373"
  },
  "IN": {
    "state_flag_url": "https://cdn.civil.services/us-states/flags/indiana-large.png",
    "name": "Indiana",
    "capital": "Indianapolis",
    "lat": "39.790942",
    "long": "-86.147685"
  },
  "IA": {
    "state_flag_url": "https://cdn.civil.services/us-states/flags/iowa-large.png",
    "name": "Iowa",
    "capital": "Des Moines",
    "lat": "41.590939",
    "long": "-93.620866"
  },
  "KS": {
    "state_flag_url": "https://cdn.civil.services/us-states/flags/kansas-large.png",
    "name": "Kansas",
    "capital": "Topeka",
    "lat": "39.04",
    "long": "-95.69"
  },
  "KY": {
    "state_flag_url": "https://cdn.civil.services/us-states/flags/kentucky-large.png",
    "name": "Kentucky",
    "capital": "Frankfort",
    "lat": "38.197274",
    "long": "-84.86311"
  },
  "LA": {
    "state_flag_url": "https://cdn.civil.services/us-states/flags/louisiana-large.png",
    "name": "Louisiana",
    "capital": "Baton Rouge",
    "lat": "30.45809",
    "long": "-91.140229"
  },
  "ME": {
    "state_flag_url": "https://cdn.civil.services/us-states/flags/maine-large.png",
    "name": "Maine",
    "capital": "Augusta",
    "lat": "44.323535",
    "long": "-69.765261"
  },
  "MD": {
    "state_flag_url": "https://cdn.civil.services/us-states/flags/maryland-large.png",
    "name": "Maryland",
    "capital": "Annapolis",
    "lat": "38.972945",
    "long": "-76.501157"
  },
  "MA": {
    "state_flag_url": "https://cdn.civil.services/us-states/flags/massachusetts-large.png",
    "name": "Massachusetts",
    "capital": "Boston",
    "lat": "42.2352",
    "long": "-71.0275"
  },
  "MI": {
    "state_flag_url": "https://cdn.civil.services/us-states/flags/michigan-large.png",
    "name": "Michigan",
    "capital": "Lansing",
    "lat": "42.7335",
    "long": "-84.5467"
  },
  "MN": {
    "state_flag_url": "https://cdn.civil.services/us-states/flags/minnesota-large.png",
    "name": "Minnesota",
    "capital": "Saint Paul",
    "lat": "44.95",
    "long": "-93.094"
  },
  "MS": {
    "state_flag_url": "https://cdn.civil.services/us-states/flags/mississippi-large.png",
    "name": "Mississippi",
    "capital": "Jackson",
    "lat": "32.320",
    "long": "-90.207"
  },
  "MO": {
    "state_flag_url": "https://cdn.civil.services/us-states/flags/missouri-large.png",
    "name": "Missouri",
    "capital": "Jefferson City",
    "lat": "38.572954",
    "long": "-92.189283"
  },
  "MT": {
    "state_flag_url": "https://cdn.civil.services/us-states/flags/montana-large.png",
    "name": "Montana",
    "capital": "Helana",
    "lat": "46.595805",
    "long": "-112.027031"
  },
  "NE": {
    "state_flag_url": "https://cdn.civil.services/us-states/flags/nebraska-large.png",
    "name": "Nebraska",
    "capital": "Lincoln",
    "lat": "40.809868",
    "long": "-96.675345"
  },
  "NV": {
    "state_flag_url": "https://cdn.civil.services/us-states/flags/nevada-large.png",
    "name": "Nevada",
    "capital": "Carson City",
    "lat": "39.160949",
    "long": "-119.753877"
  },
  "NH": {
    "state_flag_url": "https://cdn.civil.services/us-states/flags/new-hampshire-large.png",
    "name": "New Hampshire",
    "capital": "Concord",
    "lat": "43.220093",
    "long": "-71.549127"
  },
  "NJ": {
    "state_flag_url": "https://cdn.civil.services/us-states/flags/new-jersey-large.png",
    "name": "New Jersey",
    "capital": "Trenton",
    "lat": "40.221741",
    "long": "-74.756138"
  },
  "NM": {
    "state_flag_url": "https://cdn.civil.services/us-states/flags/new-mexico-large.png",
    "name": "New Mexico",
    "capital": "Santa Fe",
    "lat": "35.667231",
    "long": "-105.964575"
  },
  "NY": {
    "state_flag_url": "https://cdn.civil.services/us-states/flags/new-york-large.png",
    "name": "New York",
    "capital": "Albany",
    "lat": "42.659829",
    "long": "-73.781339"
  },
  "NC": {
    "state_flag_url": "https://cdn.civil.services/us-states/flags/north-carolina-large.png",
    "name": "North Carolina",
    "capital": "Raleigh",
    "lat": "35.771",
    "long": "-78.638"
  },
  "ND": {
    "state_flag_url": "https://cdn.civil.services/us-states/flags/north-dakota-large.png",
    "name": "North Dakota",
    "capital": "Bismarck",
    "lat": "48.813343",
    "long": "-100.779004"
  },
  "OH": {
    "state_flag_url": "https://cdn.civil.services/us-states/flags/ohio-large.png",
    "name": "Ohio",
    "capital": "Columbus",
    "lat": "39.962245",
    "long": "-83.000647"
  },
  "OK": {
    "state_flag_url": "https://cdn.civil.services/us-states/flags/oklahoma-large.png",
    "name": "Oklahoma",
    "capital": "Oklahoma City",
    "lat": "35.482309",
    "long": "-97.534994"
  },
  "OR": {
    "state_flag_url": "https://cdn.civil.services/us-states/flags/oregon-large.png",
    "name": "Oregon",
    "capital": "Salem",
    "lat": "44.931109",
    "long": "-123.029159"
  },
  "PA": {
    "state_flag_url": "https://cdn.civil.services/us-states/flags/pennsylvania-large.png",
    "name": "Pennsylvania",
    "capital": "Harrisburg",
    "lat": "40.269789",
    "long": "-76.875613"
  },
  "RI": {
    "state_flag_url": "https://cdn.civil.services/us-states/flags/rhode-island-large.png",
    "name": "Rhode Island",
    "capital": "Providence",
    "lat": "41.82355",
    "long": "-71.422132"
  },
  "SC": {
    "map_image_url": "https://cdn.civil.services/us-states/maps/south-carolina-large.png",
    "name": "South Carolina",
    "capital": "Columbia",
    "lat": "34.000",
    "long": "-81.035"
  },
  "SD": {
    "state_flag_url": "https://cdn.civil.services/us-states/flags/south-dakota-large.png",
    "name": "South Dakota",
    "capital": "Pierre",
    "lat": "44.367966",
    "long": "-100.336378"
  },
  "TN": {
    "state_flag_url": "https://cdn.civil.services/us-states/flags/tennessee-large.png",
    "name": "Tennessee",
    "capital": "Nashville",
    "lat": "36.165",
    "long": "-86.784"
  },
  "TX": {
    "state_flag_url": "https://cdn.civil.services/us-states/flags/texas-large.png",
    "name": "Texas",
    "capital": "Austin",
    "lat": "30.266667",
    "long": "-97.75"
  },
  "UT": {
    "state_flag_url": "https://cdn.civil.services/us-states/flags/utah-large.png",
    "name": "Utah",
    "capital": "Salt Lake City",
    "lat": "40.7547",
    "long": "-111.892622"
  },
  "VT": {
    "state_flag_url": "https://cdn.civil.services/us-states/flags/vermont-large.png",
    "name": "Vermont",
    "capital": "Montpelier",
    "lat": "44.26639",
    "long": "-72.57194"
  },
  "VA": {
    "state_flag_url": "https://cdn.civil.services/us-states/flags/virginia-large.png",
    "name": "Virginia",
    "capital": "Richmond",
    "lat": "37.54",
    "long": "-77.46"
  },
  "WA": {
    "state_flag_url": "https://cdn.civil.services/us-states/flags/washington-large.png",
    "name": "Washington",
    "capital": "Olympia",
    "lat": "47.042418",
    "long": "-122.893077"
  },
  "WV": {
    "state_flag_url": "https://cdn.civil.services/us-states/flags/west-virginia-large.png",
    "name": "West Virginia",
    "capital": "Charleston",
    "lat": "38.349497",
    "long": "-81.633294"
  },
  "WI": {
    "state_flag_url": "https://cdn.civil.services/us-states/flags/wisconsin-large.png",
    "name": "Wisconsin",
    "capital": "Madison",
    "lat": "43.074722",
    "long": "-89.384444"
  },
  "WY": {
    "state_flag_url": "https://cdn.civil.services/us-states/flags/wyoming-large.png",
    "name": "Wyoming",
    "capital": "Cheyenne",
    "lat": "41.145548",
    "long": "-104.802042"
  }
}
